{"type": "FeatureCollection", "features": [{"geometry": {"type": "Point", "coordinates": [-122.197273, 37.754006]}, "type": "Feature", "name": "Coliseum/Oakland Airport", "bbox": [-122.197273, 37.754006, -122.197273, 37.754006], "properties": ["COLS", "Coliseum/Oakland Airport", "", "37.754006", "-122.197273", "COLS", "http://www.bart.gov/stations/COLS/", "0", "", "", "1"]}, {"geometry": {"type": "Point", "coordinates": [-122.029095, 37.973737]}, "type": "Feature", "name": "Concord", "bbox": [-122.029095, 37.973737, -122.029095, 37.973737], "properties": ["CONC", "Concord", "", "37.973737", "-122.029095", "CONC", "http://www.bart.gov/stations/CONC/", "0", "", "", "1"]}, {"geometry": {"type": "Point", "coordinates": [-122.4690807, 37.70612055]}, "type": "Feature", "name": "Daly City", "bbox": [-122.4690807, 37.70612055, -122.4690807, 37.70612055], "properties": ["DALY", "Daly City", "", "37.70612055", "-122.4690807", "DALY", "http://www.bart.gov/stations/DALY/", "0", "", "", "1"]}, {"geometry": {"type": "Point", "coordinates": [-122.017867, 37.591208]}, "type": "Feature", "name": "Union City", "bbox": [-122.017867, 37.591208, -122.017867, 37.591208], "properties": ["UCTY", "Union City", "", "37.591208", "-122.017867", "UCTY", "http://www.bart.gov/stations/UCTY/", "0", "", "", "1"]}, {"geometry": {"type": "Point", "coordinates": [-122.4474142, 37.72198087]}, "type": "Feature", "name": "Balboa Park", "bbox": [-122.4474142, 37.72198087, -122.4474142, 37.72198087], "properties": ["BALB", "Balboa Park", "", "37.72198087", "-122.4474142", "BALB", "http://www.bart.gov/stations/BALB/", "0", "", "", "1"]}, {"geometry": {"type": "Point", "coordinates": [-121.900367, 37.701695]}, "type": "Feature", "name": "Dublin/Pleasanton", "bbox": [-121.900367, 37.701695, -121.900367, 37.701695], "properties": ["DUBL", "Dublin/Pleasanton", "", "37.701695", "-121.900367", "DUBL", "http://www.bart.gov/stations/DUBL/", "0", "", "", "1"]}, {"geometry": {"type": "Point", "coordinates": [-122.2992715, 37.9030588]}, "type": "Feature", "name": "El Cerrito Plaza", "bbox": [-122.2992715, 37.9030588, -122.2992715, 37.9030588], "properties": ["PLZA", "El Cerrito Plaza", "", "37.9030588", "-122.2992715", "PLZA", "http://www.bart.gov/stations/PLZA/", "0", "", "", "1"]}, {"geometry": {"type": "Point", "coordinates": [-122.419694, 37.765062]}, "type": "Feature", "name": "16th St. Mission", "bbox": [-122.419694, 37.765062, -122.419694, 37.765062], "properties": ["16TH", "16th St. Mission", "", "37.765062", "-122.419694", "16TH", "http://www.bart.gov/stations/16TH/", "0", "", "", "1"]}, {"geometry": {"type": "Point", "coordinates": [-122.317269, 37.925655]}, "type": "Feature", "name": "El Cerrito del Norte", "bbox": [-122.317269, 37.925655, -122.317269, 37.925655], "properties": ["DELN", "El Cerrito del Norte", "", "37.925655", "-122.317269", "DELN", "http://www.bart.gov/stations/DELN/", "0", "", "", "1"]}, {"geometry": {"type": "Point", "coordinates": [-122.2945822, 37.80467476]}, "type": "Feature", "name": "West Oakland", "bbox": [-122.2945822, 37.80467476, -122.2945822, 37.80467476], "properties": ["WOAK", "West Oakland", "", "37.80467476", "-122.2945822", "WOAK", "http://www.bart.gov/stations/WOAK/", "0", "", "", "1"]}, {"geometry": {"type": "Point", "coordinates": [-122.0575506, 37.63479954]}, "type": "Feature", "name": "South Hayward", "bbox": [-122.0575506, 37.63479954, -122.0575506, 37.63479954], "properties": ["SHAY", "South Hayward", "", "37.63479954", "-122.0575506", "SHAY", "http://www.bart.gov/stations/SHAY/", "0", "", "", "1"]}, {"geometry": {"type": "Point", "coordinates": [-121.928099, 37.699759]}, "type": "Feature", "name": "West Dublin/Pleasanton", "bbox": [-121.928099, 37.699759, -121.928099, 37.699759], "properties": ["WDUB", "West Dublin/Pleasanton", "", "37.699759", "-121.928099", "WDUB", "http://www.bart.gov/stations/WDUB/", "0", "", "", "1"]}, {"geometry": {"type": "Point", "coordinates": [-122.224274, 37.774963]}, "type": "Feature", "name": "Fruitvale", "bbox": [-122.224274, 37.774963, -122.224274, 37.774963], "properties": ["FTVL", "Fruitvale", "", "37.774963", "-122.224274", "FTVL", "http://www.bart.gov/stations/FTVL/", "0", "", "", "1"]}, {"geometry": {"type": "Point", "coordinates": [-122.123801, 37.893394]}, "type": "Feature", "name": "Lafayette", "bbox": [-122.123801, 37.893394, -122.123801, 37.893394], "properties": ["LAFY", "Lafayette", "", "37.893394", "-122.123801", "LAFY", "http://www.bart.gov/stations/LAFY/", "0", "", "", "1"]}, {"geometry": {"type": "Point", "coordinates": [-122.434092, 37.732921]}, "type": "Feature", "name": "Glen Park", "bbox": [-122.434092, 37.732921, -122.434092, 37.732921], "properties": ["GLEN", "Glen Park", "", "37.732921", "-122.434092", "GLEN", "http://www.bart.gov/stations/GLEN/", "0", "", "", "1"]}, {"geometry": {"type": "Point", "coordinates": [-122.087967, 37.670399]}, "type": "Feature", "name": "Hayward", "bbox": [-122.087967, 37.670399, -122.087967, 37.670399], "properties": ["HAYW", "Hayward", "", "37.670399", "-122.087967", "HAYW", "http://www.bart.gov/stations/HAYW/", "0", "", "", "1"]}, {"geometry": {"type": "Point", "coordinates": [-122.396742, 37.792976]}, "type": "Feature", "name": "Embarcadero", "bbox": [-122.396742, 37.792976, -122.396742, 37.792976], "properties": ["EMBR", "Embarcadero", "", "37.792976", "-122.396742", "EMBR", "http://www.bart.gov/stations/EMBR/", "0", "", "", "1"]}, {"geometry": {"type": "Point", "coordinates": [-121.9764, 37.557355]}, "type": "Feature", "name": "Fremont", "bbox": [-121.9764, 37.557355, -121.9764, 37.557355], "properties": ["FRMT", "Fremont", "", "37.557355", "-121.9764", "FRMT", "http://www.bart.gov/stations/FRMT/", "0", "", "", "1"]}, {"geometry": {"type": "Point", "coordinates": [-121.945154, 38.018914]}, "type": "Feature", "name": "Pittsburg/Bay Point", "bbox": [-121.945154, 38.018914, -121.945154, 38.018914], "properties": ["PITT", "Pittsburg/Bay Point", "", "38.018914", "-121.945154", "PITT", "http://www.bart.gov/stations/PITT/", "0", "", "", "1"]}, {"geometry": {"type": "Point", "coordinates": [-122.265609, 37.797484]}, "type": "Feature", "name": "Lake Merritt", "bbox": [-122.265609, 37.797484, -122.265609, 37.797484], "properties": ["LAKE", "Lake Merritt", "", "37.797484", "-122.265609", "LAKE", "http://www.bart.gov/stations/LAKE/", "0", "", "", "1"]}, {"geometry": {"type": "Point", "coordinates": [-122.444116, 37.664174]}, "type": "Feature", "name": "South San Francisco", "bbox": [-122.444116, 37.664174, -122.444116, 37.664174], "properties": ["SSAN", "South San Francisco", "", "37.664174", "-122.444116", "SSAN", "http://www.bart.gov/stations/SSAN/", "0", "", "", "1"]}, {"geometry": {"type": "Point", "coordinates": [-122.267227, 37.828415]}, "type": "Feature", "name": "MacArthur", "bbox": [-122.267227, 37.828415, -122.267227, 37.828415], "properties": ["MCAR", "MacArthur", "", "37.828415", "-122.267227", "MCAR", "http://www.bart.gov/stations/MCAR/", "0", "", "", "1"]}, {"geometry": {"type": "Point", "coordinates": [-122.21244024, 37.71297174]}, "type": "Feature", "name": "Oakland Int'l Airport", "bbox": [-122.21244024, 37.71297174, -122.21244024, 37.71297174], "properties": ["OAKL", "Oakland Int'l Airport", "", "37.71297174", "-122.21244024", "OAKL", "http://www.bart.gov/stations/OAKL/", "0", "", "", "1"]}, {"geometry": {"type": "Point", "coordinates": [-122.267227, 37.828415]}, "type": "Feature", "name": "MacArthur", "bbox": [-122.267227, 37.828415, -122.267227, 37.828415], "properties": ["MCAR_S", "MacArthur", "", "37.828415", "-122.267227", "MCAR", "http://www.bart.gov/stations/MCAR/", "0", "", "", "1"]}, {"geometry": {"type": "Point", "coordinates": [-122.075567, 37.690754]}, "type": "Feature", "name": "Castro Valley", "bbox": [-122.075567, 37.690754, -122.075567, 37.690754], "properties": ["CAST", "Castro Valley", "", "37.690754", "-122.075567", "CAST", "http://www.bart.gov/stations/CAST/", "0", "", "", "1"]}, {"geometry": {"type": "Point", "coordinates": [-122.38666, 37.599787]}, "type": "Feature", "name": "Millbrae", "bbox": [-122.38666, 37.599787, -122.38666, 37.599787], "properties": ["MLBR", "Millbrae", "", "37.599787", "-122.38666", "MLBR", "http://www.bart.gov/stations/MLBR/", "0", "", "", "1"]}, {"geometry": {"type": "Point", "coordinates": [-122.401407, 37.789256]}, "type": "Feature", "name": "Montgomery St.", "bbox": [-122.401407, 37.789256, -122.401407, 37.789256], "properties": ["MONT", "Montgomery St.", "", "37.789256", "-122.401407", "MONT", "http://www.bart.gov/stations/MONT/", "0", "", "", "1"]}, {"geometry": {"type": "Point", "coordinates": [-122.271604, 37.803664]}, "type": "Feature", "name": "12th St. Oakland City Center", "bbox": [-122.271604, 37.803664, -122.271604, 37.803664], "properties": ["12TH", "12th St. Oakland City Center", "", "37.803664", "-122.271604", "12TH", "http://www.bart.gov/stations/12TH/", "0", "", "", "1"]}, {"geometry": {"type": "Point", "coordinates": [-122.283451, 37.87404]}, "type": "Feature", "name": "North Berkeley", "bbox": [-122.283451, 37.87404, -122.283451, 37.87404], "properties": ["NBRK", "North Berkeley", "", "37.87404", "-122.283451", "NBRK", "http://www.bart.gov/stations/NBRK/", "0", "", "", "1"]}, {"geometry": {"type": "Point", "coordinates": [-122.268045, 37.869867]}, "type": "Feature", "name": "Downtown Berkeley", "bbox": [-122.268045, 37.869867, -122.268045, 37.869867], "properties": ["DBRK", "Downtown Berkeley", "", "37.869867", "-122.268045", "DBRK", "http://www.bart.gov/stations/DBRK/", "0", "", "", "1"]}, {"geometry": {"type": "Point", "coordinates": [-122.1837911, 37.87836087]}, "type": "Feature", "name": "Orinda", "bbox": [-122.1837911, 37.87836087, -122.1837911, 37.87836087], "properties": ["ORIN", "Orinda", "", "37.87836087", "-122.1837911", "ORIN", "http://www.bart.gov/stations/ORIN/", "0", "", "", "1"]}, {"geometry": {"type": "Point", "coordinates": [-122.1613112, 37.72261921]}, "type": "Feature", "name": "San Leandro", "bbox": [-122.1613112, 37.72261921, -122.1613112, 37.72261921], "properties": ["SANL", "San Leandro", "", "37.72261921", "-122.1613112", "SANL", "http://www.bart.gov/stations/SANL/", "0", "", "", "1"]}, {"geometry": {"type": "Point", "coordinates": [-122.024597, 38.003275]}, "type": "Feature", "name": "North Concord/Martinez", "bbox": [-122.024597, 38.003275, -122.024597, 38.003275], "properties": ["NCON", "North Concord/Martinez", "", "38.003275", "-122.024597", "NCON", "http://www.bart.gov/stations/NCON/", "0", "", "", "1"]}, {"geometry": {"type": "Point", "coordinates": [-122.269029, 37.80787]}, "type": "Feature", "name": "19th St. Oakland", "bbox": [-122.269029, 37.80787, -122.269029, 37.80787], "properties": ["19TH", "19th St. Oakland", "", "37.80787", "-122.269029", "19TH", "http://www.bart.gov/stations/19TH/", "0", "", "", "1"]}, {"geometry": {"type": "Point", "coordinates": [-122.056013, 37.928403]}, "type": "Feature", "name": "Pleasant Hill/Contra Costa Centre", "bbox": [-122.056013, 37.928403, -122.056013, 37.928403], "properties": ["PHIL", "Pleasant Hill/Contra Costa Centre", "", "37.928403", "-122.056013", "PHIL", "http://www.bart.gov/stations/PHIL/", "0", "", "", "1"]}, {"geometry": {"type": "Point", "coordinates": [-122.269029, 37.80787]}, "type": "Feature", "name": "19th St. Oakland", "bbox": [-122.269029, 37.80787, -122.269029, 37.80787], "properties": ["19TH_N", "19th St. Oakland", "", "37.80787", "-122.269029", "19TH", "http://www.bart.gov/stations/19TH/", "0", "", "", "1"]}, {"geometry": {"type": "Point", "coordinates": [-122.418466, 37.752254]}, "type": "Feature", "name": "24th St. Mission", "bbox": [-122.418466, 37.752254, -122.418466, 37.752254], "properties": ["24TH", "24th St. Mission", "", "37.752254", "-122.418466", "24TH", "http://www.bart.gov/stations/24TH/", "0", "", "", "1"]}, {"geometry": {"type": "Point", "coordinates": [-122.067423, 37.905628]}, "type": "Feature", "name": "Walnut Creek", "bbox": [-122.067423, 37.905628, -122.067423, 37.905628], "properties": ["WCRK", "Walnut Creek", "", "37.905628", "-122.067423", "WCRK", "http://www.bart.gov/stations/WCRK/", "0", "", "", "1"]}, {"geometry": {"type": "Point", "coordinates": [-122.26978, 37.853024]}, "type": "Feature", "name": "Ashby", "bbox": [-122.26978, 37.853024, -122.26978, 37.853024], "properties": ["ASHB", "Ashby", "", "37.853024", "-122.26978", "ASHB", "http://www.bart.gov/stations/ASHB/", "0", "", "", "1"]}, {"geometry": {"type": "Point", "coordinates": [-122.353165, 37.936887]}, "type": "Feature", "name": "Richmond", "bbox": [-122.353165, 37.936887, -122.353165, 37.936887], "properties": ["RICH", "Richmond", "", "37.936887", "-122.353165", "RICH", "http://www.bart.gov/stations/RICH/", "0", "", "", "1"]}, {"geometry": {"type": "Point", "coordinates": [-122.413756, 37.779528]}, "type": "Feature", "name": "Civic Center/UN Plaza", "bbox": [-122.413756, 37.779528, -122.413756, 37.779528], "properties": ["CIVC", "Civic Center/UN Plaza", "", "37.779528", "-122.413756", "CIVC", "http://www.bart.gov/stations/CIVC/", "0", "", "", "1"]}, {"geometry": {"type": "Point", "coordinates": [-122.251793, 37.844601]}, "type": "Feature", "name": "Rockridge", "bbox": [-122.251793, 37.844601, -122.251793, 37.844601], "properties": ["ROCK", "Rockridge", "", "37.844601", "-122.251793", "ROCK", "http://www.bart.gov/stations/ROCK/", "0", "", "", "1"]}, {"geometry": {"type": "Point", "coordinates": [-122.416038, 37.637753]}, "type": "Feature", "name": "San Bruno", "bbox": [-122.416038, 37.637753, -122.416038, 37.637753], "properties": ["SBRN", "San Bruno", "", "37.637753", "-122.416038", "SBRN", "http://www.bart.gov/stations/SBRN/", "0", "", "", "1"]}, {"geometry": {"type": "Point", "coordinates": [-122.406857, 37.784991]}, "type": "Feature", "name": "Powell St.", "bbox": [-122.406857, 37.784991, -122.406857, 37.784991], "properties": ["POWL", "Powell St.", "", "37.784991", "-122.406857", "POWL", "http://www.bart.gov/stations/POWL/", "0", "", "", "1"]}, {"geometry": {"type": "Point", "coordinates": [-122.466233, 37.684638]}, "type": "Feature", "name": "Colma", "bbox": [-122.466233, 37.684638, -122.466233, 37.684638], "properties": ["COLM", "Colma", "", "37.684638", "-122.466233", "COLM", "http://www.bart.gov/stations/COLM/", "0", "", "", "1"]}, {"geometry": {"type": "Point", "coordinates": [-122.126871, 37.697185]}, "type": "Feature", "name": "Bay Fair", "bbox": [-122.126871, 37.697185, -122.126871, 37.697185], "properties": ["BAYF", "Bay Fair", "", "37.697185", "-122.126871", "BAYF", "http://www.bart.gov/stations/BAYF/", "0", "", "", "1"]}, {"geometry": {"type": "Point", "coordinates": [-122.392612, 37.616035]}, "type": "Feature", "name": "San Francisco Int'l Airport", "bbox": [-122.392612, 37.616035, -122.392612, 37.616035], "properties": ["SFIA", "San Francisco Int'l Airport", "", "37.616035", "-122.392612", "SFIA", "http://www.bart.gov/stations/SFIA/", "0", "", "", "1"]}]}